[
  {
    "name": "A.S. COLOR IMPORT EXPORT SRL",
    "address": "Str. Orizontului, nr. 1,Pantelimon",
    "phone": "0732 007 853",
    "mail": "georgiana.preda@ascolor.ro",
    "lat": 44.4476421,
    "lon": 26.2263043
  },
  {
    "name": "ABS DECOR SRL",
    "address": "Str. Dragos Voda, nr. 18,Deva",
    "phone": "0722 451 516",
    "mail": "absdecorsrl@yahoo.com",
    "lat": 45.8739215,
    "lon": 22.9059138
  },
  {
    "name": "ABT TOP CONSTRUCT SRL",
    "address": "Str. Cuza Voda, nr. 20,Viisoara",
    "phone": "0744 602 228",
    "mail": "abttopconstructsrl@gmail.com",
    "lat": 46.9413361,
    "lon": 26.2731506
  },
  {
    "name": "ADE-COM COMPANY SRL",
    "address": "Str. Codrul Cosminului, nr. 27,Brasov",
    "phone": "(0721) 282 463",
    "mail": "office@adecomgroup.ro",
    "lat": 45.6625937,
    "lon": 25.6040864
  },
  {
    "name": "AGREVO SRL",
    "address": "Str. Eroilor, nr. 23,Corod",
    "phone": "",
    "mail": "epifania.savastre@yahoo.com",
    "lat": 45.9092794,
    "lon": 27.6306592
  },
  {
    "name": "ALEXANDRU CO SRL",
    "address": "Str. Milcov, nr. 47,Magurele",
    "phone": "(0722) 166 927",
    "mail": "alexandrucosrl2@gmail.com",
    "lat": 44.349894,
    "lon": 26.0240854
  },
  {
    "name": "APC UNIVERSAL PARTNER SRL",
    "address": "Str. Strada Baratilor, nr. 2,Sighisoara",
    "phone": "0752 043 468",
    "mail": "pavel.pop@ambientsighisoara.ro",
    "lat": 46.2219542,
    "lon": 24.827792
  },
  {
    "name": "APC UNIVERSAL PARTNER SRL",
    "address": "Strada Turda, nr. 15,Sibiu",
    "phone": "0752.043 381",
    "mail": "cristina.neamtu@apc-up.ro",
    "lat": 45.7955697,
    "lon": 24.1063232
  },
  {
    "name": "APC UNIVERSAL PARTNER SRL",
    "address": "Str. Beclean, Nr. 314,Odorheiu Secuiesc",
    "phone": "",
    "mail": "daniel.orban@ambientbistrita.ro",
    "lat": 46.3315609,
    "lon": 25.335729
  },
  {
    "name": "APREX AUTO SRL",
    "address": "Str. Atelierelor, Nr. 10,Moinesti",
    "phone": "(0740) 791 665",
    "mail": "aprexauto@yahoo.com",
    "lat": 46.4764221,
    "lon": 26.4956205
  },
  {
    "name": "ARABESQUE SRL",
    "address": "Calea Sagului Nr. 205,Timisoara",
    "phone": "0743 499 101",
    "mail": "CHIMICE.TM@ARABESQUE.RO",
    "lat": 45.6846889,
    "lon": 21.169145
  },
  {
    "name": "ART PAINTWORKS SRL",
    "address": "Str. Timotei Cipariu, Nr. 2,Sibiu",
    "phone": "0748 101 387",
    "mail": "laurentiu.patrichi@vopselelavabile.com",
    "lat": 45.7715023,
    "lon": 24.1241173
  },
  {
    "name": "ARTCOLOR DS S.R.L",
    "address": "Str. Avram Iancu, Nr. 31,Agnita",
    "phone": "+40 729 552550",
    "mail": "d.stirner@artcolor.group",
    "lat": 45.9807578,
    "lon": 24.6380841
  },
  {
    "name": "ARTSANI COM SRL",
    "address": "Str. Gheorghe Doja, Nr. 236,Ploiesti",
    "phone": "0729 996 291",
    "mail": "alina.constantin@artsani.ro",
    "lat": 44.9478336,
    "lon": 26.009724
  },
  {
    "name": "B & S DISTRICONSTRUCT SRL",
    "address": "Str. Constantin Langa, Nr. 142,Miroslava",
    "phone": "0748 793 320",
    "mail": "depozit@bsdpartenerbrikston.ro",
    "lat": 47.1450781,
    "lon": 27.5352822
  },
  {
    "name": "BALAJ MIHAI-STEFAN INTREPRINDERE INDIVID",
    "address": "Str. Magnoliei, Nr. 3,Sasar",
    "phone": "(0742) 984 739",
    "mail": "balaj_mihai1610@yahoo.com",
    "lat": 47.6624584,
    "lon": 23.5441317
  },
  {
    "name": "BAMATI SRL",
    "address": "B-dul Nicolae Iorga, Nr. 20,Drobeta Turnu Severin",
    "phone": "0740 240 279",
    "mail": "office@bamati.ro",
    "lat": 44.6279069,
    "lon": 22.6877667
  },
  {
    "name": "BATSON CONSTRUCT SRL",
    "address": "Str. Stadionului, Nr. 6,Aiud",
    "phone": "0744 615 565",
    "mail": "office@batson.ro",
    "lat": 46.3123836,
    "lon": 23.7278631
  },
  {
    "name": "BAU ART TEAM SRL",
    "address": "Nr.82,Odaia Banului",
    "phone": "0744 348 857",
    "mail": "cristian.norocea@yahoo.com",
    "lat": 45.0776663,
    "lon": 26.8313355
  },
  {
    "name": "BMP CONSTRUCT SRL",
    "address": "Aleea Borsec, Nr. 1,Cluj-Napoca",
    "phone": "0747 967 200",
    "mail": "mileamihai15@yahoo.com",
    "lat": 46.7694727,
    "lon": 23.6230002
  },
  {
    "name": "BRICOVERS SRL",
    "address": "Calea Sagului Nr. 21,Timisoara",
    "phone": "0754228338",
    "mail": "cosmin@bricovers.ro",
    "lat": 45.6847077,
    "lon": 21.1690331
  },
  {
    "name": "BUCOVINA ELECTRO TOP SRL",
    "address": "Str. Garii, Nr. 22,Radauti",
    "phone": "0749 222 225",
    "mail": "materiale1@bucovinaelectrotop.ro",
    "lat": 47.840391,
    "lon": 25.9104334
  },
  {
    "name": "BUILDING MAT SUPPLIER SRL",
    "address": "Str. Morii, Nr. 11,Ciupercenii Noi",
    "phone": "0740 326 426",
    "mail": "bms.dragomir@gmail.com",
    "lat": 43.916983,
    "lon": 22.9466926
  },
  {
    "name": "BUZDEA SRL",
    "address": "Str. Privighetoarea, Nr. 29,Valea Lupului",
    "phone": "0729 843 653",
    "mail": "office@fence-construct.ro",
    "lat": 47.1737615,
    "lon": 27.5170585
  },
  {
    "name": "CALVADOR SRL",
    "address": "Str. Strada 1,Osorhei",
    "phone": "0744 856 952",
    "mail": "calvadorconstruct@yahoo.com",
    "lat": 47.0558657,
    "lon": 22.0781365
  },
  {
    "name": "CAROLIN SRL",
    "address": "Bujoreni,Bujoreni",
    "phone": "0742 224 310",
    "mail": "office.carolin@yahoo.ro",
    "lat": 45.1455932,
    "lon": 24.3688627
  },
  {
    "name": "CLANIEL COMPANY SRL",
    "address": "Str. Teilor, Nr. 27,Brazii de Jos",
    "phone": "0732 217 452",
    "mail": "clanyelcompany@yahoo.com",
    "lat": 44.8491354,
    "lon": 26.0270219
  },
  {
    "name": "COM CONSULTING SRL",
    "address": "Calea Baciului, Nr. 47,Cluj-Napoca",
    "phone": "0757 103 530",
    "mail": "office@com-consulting.ro",
    "lat": 46.7844104,
    "lon": 23.5557173
  },
  {
    "name": "COMRIMET IMPEX SRL",
    "address": "Campenesti 3/D,Apahida",
    "phone": "0742 016 890",
    "mail": "comrimet.cluj@yahoo.com",
    "lat": 46.8523955,
    "lon": 23.6892146
  },
  {
    "name": "CONTI IMPEX 93 SRL",
    "address": "Sos.de Centura 62C,MAGURELE",
    "phone": "(0720) 453 729",
    "mail": "adrian.constantin@contiimpex.ro",
    "lat": 44.348594,
    "lon": 26.0690794
  },
  {
    "name": "CUBIX MARKET SRL",
    "address": "Blvd Voluntari nr.88,Voluntari IF",
    "phone": "0723 302 832",
    "mail": "cubixmarket@yahoo.com",
    "lat": 44.4936398,
    "lon": 26.1938189
  },
  {
    "name": "DABU DISTRICT GRUP SRL",
    "address": "Str. Mihai Viteazul, Nr. 66,Doanca",
    "phone": "0745 129 491",
    "mail": "ddgmagazin@yahoo.com",
    "lat": 43.8627154,
    "lon": 24.6379301
  },
  {
    "name": "DACHART S.R.L",
    "address": "Str. Râului, Nr. 220,Craiova",
    "phone": "0729 884 489",
    "mail": "office@dachart.ro",
    "lat": 44.3323633,
    "lon": 23.7685206
  },
  {
    "name": "DACODRIN SRL",
    "address": "Str. Obedenaru, Nr. 32,Arad",
    "phone": "0730 018 303",
    "mail": "dacodrin@yahoo.com",
    "lat": 46.1932338,
    "lon": 21.3010152
  },
  {
    "name": "DAVID GENERAL GLOBAL SRL",
    "address": "Str. Ion Minulescu, nr.11,Pitesti",
    "phone": "0769 217 941",
    "mail": "dggcolorare@gmail.com",
    "lat": 44.8671752,
    "lon": 24.8445273
  },
  {
    "name": "DENIS  COMPANY SRL",
    "address": "Str. Tarcu, nr. 2,Mosnita Noua",
    "phone": "0732691763",
    "mail": "contact@deniscompany.com",
    "lat": 45.724171,
    "lon": 21.3094956
  },
  {
    "name": "DENIS FLOR METAL SRL",
    "address": "B-dul Republicii, Nr. 110 ,Bolintin-Vale",
    "phone": "0720 494 995",
    "mail": "denisflmetal@gmail.com",
    "lat": 44.4472524,
    "lon": 25.7562725
  },
  {
    "name": "DEVEGA SRL",
    "address": "Str.Berzei nr.4,Oradea",
    "phone": "0733 330 107",
    "mail": "office@devega.ro",
    "lat": 47.0710917,
    "lon": 21.9344703
  },
  {
    "name": "DHS SRL",
    "address": "Str. Principala, Nr. 511,Unirea",
    "phone": "0741 496 068",
    "mail": "ditulanstefan@yahoo.com",
    "lat": 44.1577066,
    "lon": 23.1772765
  },
  {
    "name": "DINA - COM SRL",
    "address": "Str. Victoriei, Nr. 171,Târgu Jiu",
    "phone": "0744 478 291",
    "mail": "dinacomdepozit@yahoo.com",
    "lat": 45.0404184,
    "lon": 23.272055
  },
  {
    "name": "DIX DEPOT SRL",
    "address": "Str. Marin Preda, Nr. 49,Otopeni",
    "phone": "0787 698 979",
    "mail": "office@dixdepot.ro",
    "lat": 44.5579905,
    "lon": 26.060416
  },
  {
    "name": "EUROCONSTRUCT SRL",
    "address": "Str. 1 Mai,Târgu Secuiesc",
    "phone": "0788-323012",
    "mail": "office@euroconstruct.ro",
    "lat": 45.9970718,
    "lon": 26.1578913
  },
  {
    "name": "GENERAL MEMENTO U.M. IMPORT EXPORT SRL",
    "address": "Aninoasa,Aninoasa",
    "phone": "0254 546 085",
    "mail": "generalmementosrl@gmail.com",
    "lat": 45.1923405,
    "lon": 24.9287081
  },
  {
    "name": "GENESIS MARKETING DISTRIBUTION SRL",
    "address": "Str. Industriilor, Nr. 191,Chiajna",
    "phone": "0786 021 393",
    "mail": "vanzari@genesis-md.ro",
    "lat": 44.4443725,
    "lon": 25.9579292
  },
  {
    "name": "GFB CONCEPT NEW PARTNER SRL",
    "address": "Str. 1 Decembrie, Nr. 131,Tunari",
    "phone": "0765 707 841",
    "mail": "office.gfb@yahoo.com",
    "lat": 44.5494109,
    "lon": 26.1332368
  },
  {
    "name": "GHITU SRL",
    "address": "Str. Principala, Nr. 20,Corbeni",
    "phone": "0744 937 816",
    "mail": "iovicone@yahoo.com",
    "lat": 45.3049354,
    "lon": 24.6613666
  },
  {
    "name": "GIE ISOLATION SRL",
    "address": "Str. Principala, Nr. 281,Satulung",
    "phone": "0742 826 467",
    "mail": "gieisolation69@gmail.com",
    "lat": 47.5604221,
    "lon": 23.4311495
  },
  {
    "name": "HEMELY SRL",
    "address": "Str. Petru Maior, Nr. 51,Turda",
    "phone": "0744 514 104",
    "mail": "hemelyconstruct@gmail.com",
    "lat": 46.5648627,
    "lon": 23.8071539
  },
  {
    "name": "IDARIUS IMPEX SRL",
    "address": "Str. 9 Mai,Târgu Jiu",
    "phone": "0724 294 041",
    "mail": "georgianaemilia@yahoo.com",
    "lat": 45.024881,
    "lon": 23.2691186
  },
  {
    "name": "IMOBIL LIC? SRL",
    "address": ",?ieu",
    "phone": "0761.942.769",
    "mail": "depozitsieu@yahoo.com",
    "lat": 38.3879813,
    "lon": 27.0448663
  },
  {
    "name": "IMPACT-CONSTRUCT SRL",
    "address": "Strada Curtici, km. 4,Arad",
    "phone": "0743071219",
    "mail": "impactconstruct2019@gmail.com",
    "lat": 46.1987087,
    "lon": 21.3192588
  },
  {
    "name": "IMPEX AURORA SRL",
    "address": "Str. Kossuth Lajos, Nr. 31,Miercurea Ciuc",
    "phone": "0744.483.382",
    "mail": "impex.aurora@gmail.com",
    "lat": 46.3621168,
    "lon": 25.8015362
  },
  {
    "name": "ISC IMOB INVEST SRL",
    "address": "B-dul Republicii,Bolintin Deal",
    "phone": "0720 101 226",
    "mail": "isc.imob.invest@gmail.com",
    "lat": 44.4506656,
    "lon": 25.8329251
  },
  {
    "name": "Lenu & Alina",
    "address": "Str. 1 Decembrie, Nr. 22,Sânnicolau Mare",
    "phone": "0722192149",
    "mail": "stanachealina@yahoo.com",
    "lat": 46.0695977,
    "lon": 20.6303078
  },
  {
    "name": "MAISTORUL SRL",
    "address": "Str. Corvinilor, Nr. 1,Satu Mare",
    "phone": "0751 507 342",
    "mail": "office.maistorul@gmail.com",
    "lat": 47.7983723,
    "lon": 22.8855042
  },
  {
    "name": "MAN PREST COM SRL",
    "address": "Str. Olarilor, Nr. 886,Vama",
    "phone": "0749 798 518",
    "mail": "scmanprestsrl@yahoo.com",
    "lat": 47.8445247,
    "lon": 23.398485
  },
  {
    "name": "MARINI TRANS SRL",
    "address": "Str. Avram Iancu, Nr. 47,Brad",
    "phone": "0728.327.079",
    "mail": "marinitransmixt@gmail.com",
    "lat": 46.1350431,
    "lon": 22.7834375
  },
  {
    "name": "MARNA SA",
    "address": "Str. Raureni, Nr.87,Râmnicu Vâlcea",
    "phone": "0755 035 189",
    "mail": "marnamat@gmail.com",
    "lat": 45.0653889,
    "lon": 24.3394888
  },
  {
    "name": "MATERIC AUTOSERV SRL",
    "address": "Str. Victoriei, Nr. 24,Moreni",
    "phone": "",
    "mail": "totatll.materic@gmail.com",
    "lat": 44.9872952,
    "lon": 25.64403
  },
  {
    "name": "MONDYGRES SRL",
    "address": "Nr. 182,Moieciu de Jos",
    "phone": "0740 196 975",
    "mail": "ionelnitu13@yahoo.com",
    "lat": 45.4941785,
    "lon": 25.3272785
  },
  {
    "name": "NORDENLOR PRODCOM IMPEX SRL",
    "address": "Str. Pandurilor, Nr. 136,Reghin",
    "phone": "0729-618239",
    "mail": "office@nordenlor.ro",
    "lat": 46.7971538,
    "lon": 24.7194587
  },
  {
    "name": "NORDENLOR PRODCOM IMPEX SRL",
    "address": "Str. Gurghiului, Nr. 51,Reghin",
    "phone": "0732-141755",
    "mail": "office@nordenlor.ro",
    "lat": 46.7628609,
    "lon": 24.7137848
  },
  {
    "name": "OLANTIG IMPEX SRL",
    "address": "Osica de Sus,Osica de Sus",
    "phone": "0767 147 659",
    "mail": "csnicolaie@yahoo.com",
    "lat": 44.2544312,
    "lon": 24.3250165
  },
  {
    "name": "OREX IMPORT EXPORT SRL",
    "address": "Str. Lunca Oltului, Nr. 16,Sfântu Gheorghe",
    "phone": "0748.223.844",
    "mail": "comercial@orex.ro",
    "lat": 45.864605,
    "lon": 25.8033006
  },
  {
    "name": "PROFESIONAL CONSTRUCT SRL",
    "address": "Str. Ambudului, Nr. 5,Satu Mare",
    "phone": "0740 574 726",
    "mail": "bota_ionut_87@yahoo.com",
    "lat": 47.7697902,
    "lon": 22.8916937
  },
  {
    "name": "PROMAT COMIMPEX SRL",
    "address": ",Andrid",
    "phone": "0752 248 300",
    "mail": "promat_vasile@yahoo.com",
    "lat": 47.5143249,
    "lon": 22.3382367
  },
  {
    "name": "QUADRAL SRL",
    "address": "Str. Botizului, Nr. 22,Satu Mare",
    "phone": "0728 320 239",
    "mail": "office@quadral-profidecor.ro",
    "lat": 47.8037489,
    "lon": 22.9091902
  },
  {
    "name": "RASUB CONSTRUCT SRL",
    "address": "Str. Alexandru Varipatti, Nr.5,Slatina",
    "phone": "0727 352 846",
    "mail": "office@rasub.ro",
    "lat": 44.4266935,
    "lon": 24.3559247
  },
  {
    "name": "REDCON UNU SRL",
    "address": "Str. Calugareni, Nr. 240,Vaslui",
    "phone": "0720 550 243",
    "mail": "info@redcon1.ro",
    "lat": 46.6508009,
    "lon": 27.7086284
  },
  {
    "name": "REVIVAL SRL",
    "address": "Str. Cuza Voda, Nr. 58,Tecuci",
    "phone": "0726 209 361",
    "mail": "revival_ro@yahoo.com",
    "lat": 45.843134,
    "lon": 27.4655087
  },
  {
    "name": "RODOTRANS SRL",
    "address": "Str. Hategului, Nr.52,Turda",
    "phone": "0744 678 724",
    "mail": "rodotrans@yahoo.ro",
    "lat": 46.559923,
    "lon": 23.8196473
  },
  {
    "name": "ROROM EXPERT SRL",
    "address": "Str. Nationalizarii,Constanta",
    "phone": "0722 385 598",
    "mail": "roromexpert@gmail.com",
    "lat": 44.1743365,
    "lon": 28.6088979
  },
  {
    "name": "SARAMARIS SRL",
    "address": "Str. Horea, Nr. 140,Hateg",
    "phone": "(0254) 777 053",
    "mail": "saramaris@yahoo.com",
    "lat": 45.6007834,
    "lon": 22.9324396
  },
  {
    "name": "SERE CONSTRUCT ACTIV SRL",
    "address": "Str. Ioan Slavici, Nr. 23,Magurele",
    "phone": "0721 680 393",
    "mail": "loreactiv@yahoo.com",
    "lat": 44.3605491,
    "lon": 26.041773
  },
  {
    "name": "SERV PROCONS SRL",
    "address": "DJ677, Nr. 154,Cepari",
    "phone": "(0764) 708 989",
    "mail": "servprocons@yahoo.com",
    "lat": 44.4897131,
    "lon": 24.1784065
  },
  {
    "name": "SIC TOTAL BAU S.R.L.",
    "address": "Str. Praidului, Nr. 94,Sovata",
    "phone": "0744591950",
    "mail": "sictotalbau@gmail.com",
    "lat": 46.5798537,
    "lon": 25.0658224
  },
  {
    "name": "SKINER SRL",
    "address": "DN65C, Nr. 172,Craiova",
    "phone": "0745 002 035",
    "mail": "sc_skiner@yahoo.com",
    "lat": 44.3218362,
    "lon": 23.8026963
  },
  {
    "name": "SMART BUSINESS SRL",
    "address": "Str. 8 Martie, Nr. 4,Baia Mare",
    "phone": "0745 267 605",
    "mail": "lupan.felician@yahoo.com",
    "lat": 47.667673,
    "lon": 23.6144415
  },
  {
    "name": "SPRIO SRL",
    "address": "Calea lui Traian, Nr. 13,Râmnicu Vâlcea",
    "phone": "0741 148 811",
    "mail": "sprio_srl@yahoo.com",
    "lat": 45.1032461,
    "lon": 24.3634373
  },
  {
    "name": "STILEXPRIMA SRL",
    "address": "Str. Lucian Blaga, Nr. 64,Bistrita",
    "phone": "0263231453",
    "mail": "office@stilexprima.ro",
    "lat": 47.151987,
    "lon": 24.5137674
  },
  {
    "name": "SVD BAU SRL",
    "address": "Str. Aurel Vlaicu, Nr. 113,Satu Mare",
    "phone": "0752 090 816",
    "mail": "svdbau@gmail.com",
    "lat": 44.5721273,
    "lon": 23.2769427
  },
  {
    "name": "TARR & TARR SRL",
    "address": "Str. Dara, Nr. 89,Satu Mare",
    "phone": "0741 937 024",
    "mail": "tarrszilard@gmail.com",
    "lat": 47.8049023,
    "lon": 22.8564546
  },
  {
    "name": "TECHNOCONS SRL",
    "address": "Str. Tudor Vladimirescu, Nr. 16,Amara",
    "phone": "0765 251 395",
    "mail": "technoconssrl@yahoo.com",
    "lat": 44.6125568,
    "lon": 27.314354
  },
  {
    "name": "TEX SRL",
    "address": "B-dul 25 Octombrie, Nr. 22,Carei",
    "phone": "+40741 145 831",
    "mail": "profitexcarei@gmail.com",
    "lat": 47.6767069,
    "lon": 22.4509409
  },
  {
    "name": "THEO IMPEX SRL",
    "address": "Soseaua Alexandriei, Nr. 3,Giurgiu",
    "phone": "0723 264 174",
    "mail": "theoimpex@gmail.com",
    "lat": 43.8945111,
    "lon": 25.9427284
  },
  {
    "name": "TOTAL KAUFEN SRL",
    "address": "B-dul Industriei, Nr. 2,Timisoara",
    "phone": "0727732431",
    "mail": "calin.dobra@yahoo.com",
    "lat": 45.7426518,
    "lon": 21.2661422
  },
  {
    "name": "TT  CO SOLARIA GRUP SRL",
    "address": "str. Trandafirilor nr.35,Giroc",
    "phone": "0732536550",
    "mail": "solariagrup@gmail.com",
    "lat": 45.6933587,
    "lon": 21.2374351
  },
  {
    "name": "UNIFLADI SRL",
    "address": "Str. Rahovei, Nr. 43,Caracal",
    "phone": "0728 279 881",
    "mail": "unifladi@yahoo.ro",
    "lat": 44.107592,
    "lon": 24.3437373
  },
  {
    "name": "VADATI SRL",
    "address": "Bulevardul Muncii,Uricani",
    "phone": "0723.798.350",
    "mail": "vadati.lupeni@yahoo.com",
    "lat": 45.3327148,
    "lon": 23.1275725
  },
  {
    "name": "VALCIU & CO S.R.L.",
    "address": "Str. Viticulturii, Nr. 14,Tulcea",
    "phone": "0240 532 059",
    "mail": "valciuco_snc@yahoo.com",
    "lat": 45.1623424,
    "lon": 28.8048215
  },
  {
    "name": "VARALB SRL",
    "address": "Strada Rákóczi Ferenc, Nr. 122,Odorheiu Secuiesc",
    "phone": "0740034916",
    "mail": "varalbsrl@gmail.com",
    "lat": 46.2839748,
    "lon": 25.2897035
  },
  {
    "name": "I&M POLUX SRL",
    "address": "Str. Principala, Nr. 2,Costinesti",
    "phone": "0241 734 393",
    "mail": "im_poluxsrl@yahoo.com",
    "lat": 43.9467339,
    "lon": 28.6271802
  },
  {
    "name": "VEST RURAL CONSTRUCT SRL",
    "address": "Str. Trandafirilor, Nr. 603,Eselnita",
    "phone": "0725 891 330",
    "mail": "fullconstruct@yahoo.com",
    "lat": 44.6992032,
    "lon": 22.3629844
  },
  {
    "name": "YANIDA COM SRL",
    "address": "Str. Narciselor, Nr. 35,Târgu Jiu",
    "phone": "0735 272 727",
    "mail": "yanidacom@yahoo.com",
    "lat": 45.0632781,
    "lon": 23.3065998
  },
  {
    "name": "YCON SRL",
    "address": "Str. Milcovului, Nr. 24,Târgu Mures",
    "phone": "0724096885",
    "mail": "yconsrl@yahoo.com",
    "lat": 46.5399696,
    "lon": 24.5421137
  },
  {
    "name": "YCON SRL",
    "address": "Str. Borzas, Nr. 1082,Sângeorgiu de Mures",
    "phone": "0771552631",
    "mail": "yconsrl@yahoo.com",
    "lat": 46.5868205,
    "lon": 24.613134
  },
  {
    "name": "LUK GRUP TRANS SRL",
    "address": "1D DN6 CORNETU,Cornetu Ilfov",
    "phone": "0786 416 482",
    "mail": "lukgruptrans@gmail.com",
    "lat": 44.3291019,
    "lon": 25.9456187
  },
  {
    "name": "MAG CONSTRUCTII EXPERT",
    "address": "Sos. Independentei ,Domnesti",
    "phone": "0736 361 727",
    "mail": "office@magconstructii.ro",
    "lat": 44.3935626,
    "lon": 25.9220019
  },
  {
    "name": "ARABESQUE SRL",
    "address": "Str. Rudeni 107 - 109,Chitila",
    "phone": "0744 344 991",
    "mail": "chimice.otopoeni@hasit.ro",
    "lat": 44.49269,
    "lon": 25.9874964
  },
  {
    "name": "ARABESQUE SRL",
    "address": "Bd. Independentei Nr. 80,Baia Mare",
    "phone": "0752 096 164",
    "mail": "CHIMICE.MM@ARABESQUE.RO",
    "lat": 47.654353,
    "lon": 23.5167777
  },
  {
    "name": "ARABESQUE SRL",
    "address": "Str. Bucegi Nr. 1,Brasov",
    "phone": "0740 119 144",
    "mail": "CHIMICE.BV@ARABESQUE.RO",
    "lat": 45.657669,
    "lon": 25.5452255
  },
  {
    "name": "ARABESQUE SRL",
    "address": "B-dul Aurel Vlaicu Nr. 171,Constanta",
    "phone": "0743 009 545",
    "mail": "chimice.ct@arabesque.ro",
    "lat": 44.1511931,
    "lon": 28.6237348
  },
  {
    "name": "ARABESQUE SRL",
    "address": "Str. Dorobantilor Nr. 34,Deva",
    "phone": "0757 066 283",
    "mail": "chimice.hd@arabesque.ro",
    "lat": 45.8725249,
    "lon": 22.9205262
  },
  {
    "name": "ARABESQUE SRL",
    "address": "Str. Drumul de Centura Nr. 39,Galati",
    "phone": "0746 255 372",
    "mail": "chimice.gl@arabesque.ro",
    "lat": 45.4139714,
    "lon": 28.0053695
  },
  {
    "name": "ARABESQUE SRL",
    "address": "Str. Poligonului Nr. 5,Ploiesti",
    "phone": "0749 161 705",
    "mail": "CHIMICE.PH@ARABESQUE.RO",
    "lat": 44.9489606,
    "lon": 25.9961155
  },
  {
    "name": "ARABESQUE SRL",
    "address": "Str. Poligonului Nr. 5,Ploiesti",
    "phone": "0749 161 705",
    "mail": "CHIMICE.PH@ARABESQUE.RO",
    "lat": 44.9489606,
    "lon": 25.9961155
  },
  {
    "name": "ARABESQUE SRL",
    "address": "Str. Vuia Traian Nr.17,Suceava",
    "phone": "0747 501 108",
    "mail": "MARIUS.CIMPAN@ARABESQUE.RO",
    "lat": 47.6637266,
    "lon": 26.2475332
  },
  {
    "name": "ARABESQUE SRL",
    "address": "Str. Barajului Nr. 3,Târgu Mures",
    "phone": "0754 058 405",
    "mail": "CHIMICE.MS@ARABESQUE.RO",
    "lat": 46.5370225,
    "lon": 24.5401984
  }
]